,City,Country,Date,Visibility,Lon,Lat,Main Temp,Temp Feels Like,Temp Min,Temp Max,Pressure,Humidity,Wind Speed,Wind Degree,Cloudiness
0,Abalak,RU,1653189129,10000,68.5944,58.1286,51.13,49.48,51.13,51.13,993,75,10.71,199,100
1,Acahay,PY,1653189143,10000,-57.15,-25.9167,52.21,51.37,52.21,52.21,1021,90,3.98,80,28
2,Adrar,MR,1653189144,10000,-10.0711,20.5022,87.75,84.06,87.75,87.75,1008,10,6.11,98,0
3,Ahipara,NZ,1653189144,10000,173.1667,-35.1667,62.94,62.08,62.94,62.94,1016,67,12.21,236,100
4,Airai,TL,1653189144,10000,125.4092,-8.9266,74.32,73.65,74.32,74.32,1011,47,4.59,129,23
5,Aitape,PG,1653188914,10000,142.3475,-3.1374,83.37,91.62,83.37,83.37,1009,78,5.32,15,100
6,Aklavik,CA,1653189145,10000,-135.0107,68.2191,35.38,30.56,35.38,35.38,1029,85,5.61,34,99
7,Aksay,RU,1653189145,10000,39.87,47.26,59.25,58.82,59.22,59.25,1007,84,20.0,240,100
8,Albany,US,1653189145,10000,-73.9662,42.6001,72.72,73.69,68.63,76.78,1017,85,2.95,243,48
9,Alexandria,EG,1653189077,10000,29.9553,31.2156,65.98,65.25,65.98,65.98,1012,63,14.67,252,0
10,Alice Springs,AU,1653189145,10000,133.8833,-23.7,69.22,67.35,67.55,69.22,1004,32,10.36,90,0
11,Alindao,CF,1653189146,10000,21.2088,5.0267,69.8,70.57,69.8,69.8,1012,87,0.29,276,100
12,Aljezur,PT,1653189146,10000,-8.8033,37.3191,62.42,62.46,62.42,62.42,1016,87,10.58,280,100
13,Almansa,ES,1653189146,10000,-1.0971,38.8692,68.58,66.16,68.58,68.58,1015,22,5.48,176,68
14,Alofi,NU,1653189147,10000,-169.9187,-19.0595,79.23,79.23,79.23,79.23,1013,74,7.74,83,24
15,Alta Gracia,AR,1653189113,10000,-64.4283,-31.6529,47.88,46.71,43.57,47.88,1021,42,3.65,305,0
16,Amapá,BR,1653189147,10000,-52.0,1.0,71.35,72.84,71.35,71.35,1017,99,1.32,116,100
17,Ambon City,ID,1653189147,10000,128.1814,-3.6954,87.94,97.93,87.94,87.94,1009,66,3.44,80,40
18,Ambulu,ID,1653189148,10000,113.6058,-8.345,84.69,89.94,84.69,84.69,1010,64,1.39,130,72
19,Ancud,CL,1653189148,2804,-73.8203,-41.8697,53.19,52.66,53.19,53.19,1007,95,25.68,339,100
20,Anking,CN,1653189148,10000,117.0506,30.5092,79.12,79.12,79.12,79.12,1008,56,1.01,202,100
21,Aras,ES,1653189149,10000,-2.356,42.5617,64.71,63.7,61.75,64.81,1014,60,3.44,150,0
22,Arcata,US,1653189149,10000,-124.0828,40.8665,52.5,51.35,49.39,54.19,1020,83,10.36,320,0
23,Ardakān,IR,1653189149,10000,54.0175,32.31,65.43,63.27,65.43,65.43,1014,34,10.04,342,28
24,Ariquemes,BR,1653189000,10000,-63.0408,-9.9133,67.96,68.36,67.96,67.96,1017,83,0.85,101,0
25,Arman',RU,1653188983,6635,150.1667,59.7,44.02,41.81,44.02,44.02,1020,94,4.18,231,100
26,Arona,ES,1653189153,10000,-16.681,28.0996,60.62,59.81,56.57,62.13,1018,73,9.22,60,0
27,Arraial do Cabo,BR,1653188905,10000,-42.0278,-22.9661,69.31,69.28,69.31,69.31,1024,71,6.15,65,17
28,Asău,RO,1653189153,10000,26.4,46.4333,59.94,58.41,56.28,59.95,1020,59,1.07,238,96
29,Asmara,ER,1653189153,10000,38.9333,15.3333,62.22,59.32,62.22,62.22,1014,25,3.83,248,12
30,Āsosa,ET,1653189154,10000,34.5333,10.0667,62.04,62.08,62.04,62.04,1014,88,2.77,148,100
31,Atasū,KZ,1653189154,10000,71.6433,48.6814,51.69,49.57,51.69,51.69,1008,64,16.6,251,100
32,Atuona,PF,1653189154,10000,-139.0333,-9.8,77.81,78.91,77.81,77.81,1014,77,8.46,61,21
33,Auxerre,FR,1653189154,10000,3.5667,47.8,53.64,52.97,53.64,53.64,1016,91,5.75,47,98
34,Avarua,CK,1653189155,10000,-159.775,-21.2078,78.85,78.85,78.85,78.85,1013,78,5.75,90,75
35,Ayan,RU,1653189155,10000,138.1667,56.45,33.33,25.79,33.33,33.33,1015,97,9.22,37,100
36,Aykhal,RU,1653189155,10000,111.5,66.0,53.55,50.95,53.55,53.55,1006,50,5.86,61,17
37,Babīna,IN,1653189156,10000,78.4667,25.25,93.87,94.68,93.87,93.87,997,35,21.25,276,3
38,Bajil,YE,1653189156,10000,43.2851,15.0584,85.28,86.11,85.28,85.28,1007,47,2.89,257,30
39,Bambari,CF,1653189156,10000,20.6757,5.768,71.15,71.91,71.15,71.15,1012,84,0.51,1,99
40,Bambous Virieux,MU,1653189156,10000,57.7575,-20.3428,70.21,70.5,70.21,70.21,1019,76,12.15,115,19
41,Banda Aceh,ID,1653189157,10000,95.3222,5.5577,85.77,94.08,85.77,85.77,1009,69,15.14,217,14
42,Bandarbeyla,SO,1653188932,10000,50.8122,9.4942,80.38,85.37,80.38,80.38,1007,82,19.64,208,100
43,Bañón,ES,1653189158,10000,-1.1909,40.8382,61.86,60.94,61.38,61.86,1015,68,5.75,200,0
44,Bar Harbor,US,1653189158,402,-68.2039,44.3876,53.82,53.28,51.91,57.52,1017,93,5.75,100,100
45,Barinas,VE,1653189159,10000,-70.2075,8.6226,76.82,76.84,76.82,76.82,1016,56,4.14,305,0
46,Barrow,US,1653189159,10000,-156.7887,71.2906,21.22,10.87,21.22,21.22,1033,93,9.22,80,100
47,Basco,PH,1653189159,10000,121.9702,20.4487,80.53,84.88,80.53,80.53,1008,77,11.07,84,57
48,Bathsheba,BB,1653189159,10000,-59.5167,13.2167,81.21,86.52,81.21,81.21,1018,78,20.71,90,40
49,Baturaja,ID,1653189160,10000,104.1667,-4.1333,86.97,95.59,86.97,86.97,1009,66,1.32,294,53
50,Belle Fourche,US,1653189161,10000,-103.8522,44.6714,38.37,33.67,35.44,40.32,1028,78,6.22,297,73
51,Bendigo,AU,1653189137,10000,144.2833,-36.7667,67.86,66.31,62.64,67.86,1025,42,0.27,136,0
52,Bengkulu,ID,1653189163,10000,102.2655,-3.8004,83.64,88.54,83.64,83.64,1010,66,2.8,280,33
53,Berdigestyakh,RU,1653189015,10000,126.6992,62.0989,59.63,56.93,59.63,59.63,1006,35,1.39,304,93
54,Beringovskiy,RU,1653189163,7437,179.3167,63.05,38.28,31.53,38.28,38.28,1020,83,9.95,1,100
55,Berlevåg,NO,1653189163,10000,29.0864,70.8578,40.95,37.06,37.2,40.95,1012,87,5.75,140,100
56,Bethel,US,1653189163,10000,-73.414,41.3712,71.42,71.98,66.56,75.29,1016,79,0.0,0,0
57,Biak,ID,1653189164,10000,122.8766,-0.9131,82.81,87.26,82.81,82.81,1010,67,5.26,222,31
58,Bida,NG,1653189164,10000,6.0167,9.0833,75.51,76.71,75.51,75.51,1012,84,2.86,217,75
59,Bilma,NE,1653189164,10000,12.9164,18.6853,80.08,78.44,80.08,80.08,1012,16,11.45,74,2
60,Birao,CF,1653189165,10000,22.7882,10.2849,76.37,76.86,76.37,76.37,1011,67,3.2,203,100
61,Birjand,IR,1653189165,2500,59.2211,32.8663,64.87,62.74,64.87,64.87,1014,36,6.91,140,58
62,Blairmore,CA,1653189165,10000,-114.4353,49.6,39.52,39.52,39.52,39.52,1025,80,1.9,85,86
63,Bluff,NZ,1653189165,10000,168.3333,-46.6,48.92,41.45,48.92,48.92,1004,62,24.18,248,71
64,Boende,CD,1653189166,10000,20.8667,-0.2167,69.98,70.92,69.98,69.98,1012,90,0.98,167,99
65,Bonthe,SL,1653189166,10000,-12.505,7.5264,76.28,77.85,76.28,76.28,1013,90,4.21,299,100
66,Borba,BR,1653189166,10000,-59.5939,-4.3878,71.78,73.17,71.78,71.78,1016,96,2.55,11,81
67,Bouna,CI,1653189167,10000,-3.0,9.2667,73.65,74.89,73.65,73.65,1012,89,4.18,187,100
68,Bowen,AU,1653189167,10000,148.2333,-20.0167,77.85,78.44,77.85,77.85,1013,66,12.24,135,55
69,Boyolangu,ID,1653189167,10000,111.8935,-8.1181,84.45,90.12,84.45,84.45,1010,66,1.74,82,36
70,Bredasdorp,ZA,1653189167,10000,20.0403,-34.5322,51.51,50.36,51.51,51.51,1024,85,5.93,322,50
71,Bria,CF,1653189168,10000,21.9863,6.5423,69.49,70.23,69.49,69.49,1012,87,1.12,268,100
72,Bulgan,MN,1653189168,10000,103.5347,48.8125,65.1,62.96,65.1,65.1,1012,35,3.09,215,74
73,Bull Savanna,JM,1653189168,10000,-77.5902,17.8868,74.14,75.43,74.14,74.14,1019,89,12.17,86,86
74,Burgeo,CA,1653189168,10000,-57.6152,47.6167,46.6,43.61,46.6,46.6,1023,74,6.02,205,75
75,Buritizeiro,BR,1653189169,10000,-44.9622,-17.3511,55.89,53.67,55.89,55.89,1022,53,2.75,153,0
76,Burns Lake,CA,1653189077,10000,-125.7533,54.2331,55.92,53.24,55.92,55.92,1020,43,2.51,232,39
77,Busselton,AU,1653189169,10000,115.3333,-33.65,67.5,67.28,67.5,67.5,1002,71,19.64,16,22
78,Butaritari,KI,1653189169,10000,172.7902,3.0707,81.23,86.76,81.23,81.23,1009,79,11.07,136,86
79,Byron Bay,AU,1653189169,10000,153.6167,-28.65,62.71,62.49,62.71,62.71,1020,81,13.65,139,96
80,Cabo San Lucas,MX,1653188954,10000,-109.9124,22.8909,70.61,70.57,70.52,74.61,936,68,5.01,309,1
81,Cairns,AU,1653189170,10000,145.7667,-16.9167,82.78,87.69,80.55,86.07,1011,69,10.36,150,75
82,Calama,CL,1653189170,10000,-68.9333,-22.4667,45.09,38.68,45.09,45.09,1032,29,13.8,120,0
83,Calderitas,MX,1653189170,10000,-88.25,18.55,84.31,94.44,84.31,84.31,1015,79,16.11,100,75
84,Calvinia,ZA,1653189171,10000,19.776,-31.4707,43.5,43.5,43.5,43.5,1024,72,2.08,71,6
85,Cape Town,ZA,1653189076,10000,18.4232,-33.9258,49.95,49.95,49.1,55.11,1023,89,1.01,312,11
86,Caraquet,CA,1653189171,5814,-64.9386,47.7941,61.34,61.68,61.34,61.34,1014,96,12.39,212,100
87,Carauari,BR,1653189172,10000,-66.8958,-4.8828,71.24,72.66,71.24,71.24,1016,98,1.97,4,62
88,Carberry,CA,1653189173,10000,-99.3602,49.8689,39.76,39.76,39.76,39.76,1023,80,1.21,82,87
89,Carnarvon,AU,1653189173,10000,113.6333,-24.8667,75.92,75.88,75.92,75.92,1011,57,22.08,303,22
90,Castro,BR,1653189173,10000,-50.0119,-24.7911,44.71,44.71,44.71,44.71,1024,80,1.95,48,2
91,Cavalcante,BR,1653189173,10000,-47.4583,-13.7975,62.58,60.98,62.58,62.58,1019,52,1.43,136,0
92,Cayenne,GF,1653189001,10000,-52.3333,4.9333,78.1,75.65,75.24,78.1,1016,1,2.3,0,0
93,Cedar City,US,1653188989,10000,-113.0619,37.6775,56.37,52.61,56.37,56.37,1017,19,9.22,360,0
94,Cepu,ID,1653189174,10000,111.5906,-7.1475,83.12,90.68,83.12,83.12,1010,77,7.58,93,81
95,Chalchihuites,MX,1653189174,10000,-103.8833,23.4833,65.03,62.55,65.03,65.03,1015,28,8.28,216,0
96,Chāndbāli,IN,1653189174,10000,86.7667,20.7833,93.34,102.69,93.34,93.34,1000,52,14.56,255,71
97,Changji,CN,1653189175,10000,87.3167,44.0167,84.99,81.91,84.99,84.99,1005,17,2.24,0,0
98,Chanika,TZ,1653189175,10000,38.0167,-5.4167,63.05,63.66,63.05,63.05,1017,98,2.13,210,99
99,Chapais,CA,1653188984,10000,-74.8492,49.7834,42.58,39.2,42.58,42.58,1018,82,5.44,335,78
100,Chemal,RU,1653189176,10000,86.005,51.4111,71.76,70.75,71.76,71.76,1004,45,5.59,162,100
101,Cherskiy,RU,1653189176,10000,161.3,68.75,59.02,56.32,59.02,59.02,1015,36,14.18,161,16
102,Chibombo,ZM,1653189176,10000,28.0706,-14.6569,57.97,56.86,57.97,57.97,1016,72,4.52,214,38
103,Chifeng,CN,1653189176,10000,118.9636,42.2683,77.63,75.88,77.63,77.63,1007,17,6.82,80,4
104,Chivilcoy,AR,1653188943,10000,-60.0167,-34.8957,50.88,47.97,50.88,50.88,1021,49,2.13,156,0
105,Chokurdakh,RU,1653189177,55,147.9167,70.6333,34.48,34.48,34.48,34.48,1013,100,1.41,142,100
106,Churapcha,RU,1653189177,10000,132.4325,62.0025,54.46,51.64,54.46,54.46,1009,43,7.78,133,18
107,Chui,UY,1653189177,10000,-53.4616,-33.6971,50.88,49.89,50.88,50.88,1021,90,5.91,276,100
108,Cidreira,BR,1653189075,10000,-50.2056,-30.1811,56.68,55.76,56.68,56.68,1022,79,5.3,351,94
109,Charter Township of Clinton,US,1653189178,10000,-82.9199,42.587,65.21,65.28,59.4,68.32,1018,82,5.75,20,100
110,Clyde River,CA,1653189178,10000,-68.5914,70.4692,19.63,8.91,19.63,19.63,1001,93,9.22,340,100
111,Coyhaique,CL,1653189113,8000,-72.0662,-45.5752,33.75,33.75,33.75,34.41,1001,93,2.3,0,100
112,Conakry,GN,1653189178,10000,-13.6773,9.538,79.38,79.38,79.38,79.38,1013,82,5.35,304,100
113,Constitución,CL,1653189178,10000,-72.4167,-35.3333,53.26,51.48,53.26,53.26,1022,68,4.05,190,100
114,Copainalá,MX,1653189179,10000,-93.2,17.0833,76.21,76.62,76.21,76.21,1014,66,4.47,159,100
115,Coquimbo,CL,1653189179,9000,-71.3436,-29.9533,53.33,53.06,53.33,53.33,1020,100,3.44,150,75
116,Cukai,MY,1653189091,10000,103.4167,4.25,86.65,96.21,86.65,86.65,1008,69,4.23,193,86
117,Daia,RO,1653189180,10000,25.9833,44.0,65.59,66.04,65.21,67.08,1010,89,3.49,202,38
118,Dakar,SN,1653188940,10000,-17.4441,14.6937,70.68,71.31,70.68,70.68,1013,82,14.72,328,97
119,Dalkola,IN,1653189180,10000,87.85,25.85,81.32,85.19,81.32,81.32,1000,70,11.92,91,58
120,Daşoguz,TM,1653188953,10000,59.9666,41.8363,63.07,61.05,63.07,63.07,1018,42,5.93,324,85
121,Davila,PH,1653189180,10000,120.5763,18.4726,83.44,89.89,83.44,83.44,1008,72,4.59,245,100
122,Deputatsky,RU,1653188931,87,139.9,69.3,30.97,30.97,30.97,30.97,1013,100,1.36,104,100
123,Det Udom,TH,1653189180,10000,105.0784,14.906,86.95,99.55,86.95,86.95,1005,83,10.54,180,100
124,Dikson,RU,1653189181,10000,80.5464,73.5069,27.77,18.16,27.77,27.77,1014,90,10.6,21,52
125,Dingle,PH,1653189181,10000,122.6711,10.9995,84.43,92.5,84.43,84.43,1008,73,6.49,200,100
126,Dondo,MZ,1653189182,10000,34.7431,-19.6094,68.14,69.26,68.14,68.14,1014,98,3.47,280,48
127,Dongsheng,CN,1653189183,10000,109.9776,39.8161,72.5,70.86,72.5,72.5,1006,30,14.07,181,54
128,Dunedin,NZ,1653189183,10000,170.5036,-45.8742,52.81,50.61,52.81,52.81,1001,60,14.0,216,100
129,Dunhua,CN,1653189183,10000,128.2425,43.3725,68.72,66.94,68.72,68.72,1007,35,6.29,356,6
130,Dunmore Town,BS,1653189184,10000,-76.65,25.5,78.96,78.96,78.96,78.96,1023,89,15.93,114,15
131,Dwārka,IN,1653189184,10000,68.9678,22.2394,83.55,91.4,83.55,83.55,1003,76,23.87,253,34
132,East London,ZA,1653189184,10000,27.9116,-33.0153,59.65,58.93,59.65,59.65,1024,77,2.77,305,59
133,Eenhana,NA,1653189185,10000,16.3333,-17.4667,44.8,40.84,44.8,44.8,1020,28,7.16,90,0
134,Effingham County,US,1653189046,10000,-81.3332,32.3669,73.04,74.46,72.86,75.65,1022,94,8.95,177,98
135,Egvekinot,RU,1653189185,10000,-179.1667,66.3167,48.06,48.06,48.06,48.06,1020,50,2.77,84,58
136,Ekhabi,RU,1653189186,2655,142.9671,53.5102,36.18,36.18,36.18,36.18,1008,98,1.77,209,100
137,Erzin,TR,1653189186,10000,36.2,36.9559,68.72,66.76,68.72,68.72,1009,31,7.7,91,3
138,Esperance,AU,1653189186,10000,121.9,-33.8667,72.19,71.46,72.19,72.19,1010,50,17.25,33,26
139,Eureka,US,1653189186,10000,-124.1637,40.8021,52.39,51.19,49.39,54.19,1019,82,8.01,304,26
140,Eydhafushi,MV,1653189187,10000,73.0708,5.1033,82.99,90.37,82.99,82.99,1010,77,14.58,262,59
141,Faanui,PF,1653189187,10000,-151.75,-16.4833,80.87,84.4,80.87,80.87,1013,70,10.49,70,11
142,Fagernes,NO,1653189187,10000,9.2324,60.9858,45.91,45.91,45.91,45.91,1013,95,1.95,292,100
143,Fairbanks,US,1653189130,10000,-147.7164,64.8378,69.46,67.57,65.82,72.61,1014,31,11.5,60,75
144,Fare,PF,1653189188,10000,-151.0167,-16.7,80.31,83.73,80.31,80.31,1014,72,10.22,78,6
145,Faya,SA,1653189188,10000,42.4509,18.3851,67.39,64.44,67.39,67.39,1015,13,6.26,94,43
146,Flums,CH,1653189188,10000,9.343,47.0906,62.02,61.77,56.21,63.72,1018,82,4.14,184,16
147,Fortuna,US,1653189188,10000,-124.1573,40.5982,51.76,50.74,49.12,53.92,1021,87,14.97,310,100
148,Nishifukuma,JP,1653189189,10000,130.4667,33.7667,80.69,83.35,78.8,86.29,1008,65,11.59,266,0
149,Kiryat Gat,IL,1653189189,10000,34.7642,31.61,68.58,69.84,67.08,69.4,1013,100,7.52,257,90
150,Gazojak,TM,1653189189,10000,61.4036,41.1875,63.64,61.54,63.64,63.64,1018,39,8.32,294,81
151,George Town,MY,1653189190,9000,100.3354,5.4112,87.73,100.33,86.95,87.73,1008,74,3.44,120,20
152,Geraldton,AU,1653189190,10000,114.6,-28.7667,79.21,79.21,79.21,79.21,1005,50,21.85,360,12
153,Gizo Government Station,SB,1653189190,10000,156.8419,-8.103,85.3,91.87,85.3,85.3,1008,66,5.17,47,19
154,Goderich,CA,1653189075,10000,-81.7165,43.7501,53.91,53.31,53.91,53.91,1016,92,4.72,77,100
155,Gornopravdinsk,RU,1653189191,10000,69.9,60.05,55.09,53.64,55.09,55.09,993,71,13.51,104,96
156,Graaff-Reinet,ZA,1653189191,10000,24.5308,-32.2522,48.92,48.43,48.92,48.92,1024,96,3.02,47,19
157,Grand Gaube,MU,1653189191,10000,57.6608,-20.0064,70.38,70.83,70.38,70.38,1018,79,1.99,186,3
158,Grand Island,US,1653189112,10000,-98.342,40.925,47.84,46.83,46.62,50.2,1025,51,3.44,330,0
159,Grenå,DK,1653189193,10000,10.8783,56.4158,50.25,49.5,49.95,52.02,1014,96,14.52,279,96
160,Grindavik,IS,1653189193,10000,-22.4338,63.8424,43.27,35.13,43.27,43.27,1004,87,18.41,20,0
161,Guarapari,BR,1653189193,10000,-40.4975,-20.6667,64.96,65.01,64.96,64.96,1024,82,4.45,265,37
162,Gubkinskiy,RU,1653189193,10000,76.5026,64.434,46.49,41.5,46.49,46.49,1009,61,10.49,110,100
163,Guerrero Negro,MX,1653189194,10000,-114.0611,27.9769,61.25,60.69,61.25,61.25,1015,77,14.2,331,92
164,Gushikawa,JP,1653189194,10000,127.8686,26.3544,79.66,79.66,78.03,80.19,1009,66,10.36,110,75
165,Hailar,CN,1653189194,10000,119.7,49.2,75.78,73.85,75.78,75.78,1002,17,18.41,225,79
166,Haines Junction,CA,1653189195,10000,-137.5108,60.7522,55.94,52.83,55.94,55.94,1018,34,5.35,231,22
167,Half Moon Bay,US,1653189195,4828,-122.4286,37.4636,56.53,55.31,50.95,67.53,1016,73,20.71,300,0
168,Hamilton,US,1653188962,10000,-84.5333,39.1834,65.25,65.98,63.84,66.6,1017,96,4.61,260,40
169,Hammerfest,NO,1653189195,10000,23.6821,70.6634,43.25,43.25,43.25,43.25,1011,75,2.3,60,20
170,Hasaki,JP,1653189196,10000,140.8333,35.7333,70.2,70.77,70.2,70.2,1005,82,21.16,5,98
171,Hashtrūd,IR,1653189196,10000,47.0508,37.4779,51.94,49.1,51.94,51.94,1016,48,1.57,109,87
172,Havre-St-Pierre,CA,1653189196,10000,-63.5986,50.2334,52.16,51.44,52.16,52.16,1012,93,4.61,70,100
173,Heinola,FI,1653189197,10000,26.0381,61.2056,39.99,37.49,39.99,39.99,1015,63,3.8,87,10
174,Henties Bay,NA,1653189197,10000,14.2845,-22.116,56.86,55.44,56.86,56.86,1016,68,4.63,102,0
175,Hermanus,ZA,1653189197,10000,19.2345,-34.4187,56.21,55.24,56.21,56.21,1024,79,6.98,337,24
176,Herne Bay,GB,1653189198,10000,1.1286,51.373,48.65,47.66,46.42,54.41,1016,92,3.56,268,62
177,Heubach,DE,1653189198,10000,9.9337,48.7927,46.9,46.9,43.25,49.05,1019,84,2.46,128,11
178,High Level,CA,1653188913,10000,-117.136,58.5169,57.04,54.03,57.04,57.04,1015,34,6.35,288,100
179,Hilo,US,1653189158,10000,-155.09,19.7297,76.91,77.74,74.62,86.29,1019,73,6.91,70,100
180,Hithadhoo,MV,1653189198,10000,73.0833,-0.6,83.1,88.32,83.1,83.1,1010,69,9.98,286,100
181,Hobart,AU,1653188961,10000,147.3294,-42.8794,51.75,50.09,49.86,56.26,1026,74,12.66,330,75
182,Hobyo,SO,1653189151,10000,48.5268,5.3505,79.65,79.65,79.65,79.65,1010,78,16.96,219,67
183,Hofn,IS,1653189199,10000,-15.2082,64.2539,46.67,40.19,46.67,46.67,1002,86,15.73,352,100
184,Hope,US,1653188999,4622,-93.5916,33.6671,82.45,94.91,82.45,82.45,1015,96,9.95,202,100
185,Horki,BY,1653189199,10000,30.9842,54.2861,45.59,38.98,45.59,45.59,1000,95,15.03,61,100
186,Hornostayivka,UA,1653189199,10000,33.729,47.0078,61.34,61.18,61.34,61.34,1005,85,12.48,301,100
187,Khovd,MN,1653189199,10000,91.6419,48.0056,66.07,63.27,66.07,66.07,1011,19,3.02,76,74
188,Huéscar,ES,1653189200,10000,-2.5412,37.811,67.12,64.62,67.12,67.12,1016,23,5.61,77,99
189,Ilām,NP,1653189200,10000,87.9167,26.9167,73.56,73.72,73.56,73.56,1003,66,3.94,132,95
190,Illela,NG,1653189200,10000,5.2975,13.7292,86.09,85.14,86.09,86.09,1009,38,7.25,242,82
191,Ilulissat,GL,1653189201,10000,-51.1,69.2167,35.62,29.23,35.62,35.62,1001,75,8.05,10,100
192,Inhambane,MZ,1653189201,4599,35.3833,-23.865,69.98,70.95,69.98,69.98,1017,91,4.94,171,100
193,Inírida,CO,1653189203,10000,-67.9239,3.8653,71.49,72.99,71.49,71.49,1017,99,2.59,160,100
194,Inzhavino,RU,1653189204,10000,42.4937,52.3185,44.74,39.69,44.74,44.74,1001,86,9.57,94,100
195,Ipixuna,BR,1653189204,10000,-48.8043,-1.7625,70.25,71.58,70.25,70.25,1017,98,2.39,149,90
196,Iqaluit,CA,1653189204,10000,-68.5145,63.7506,32.7,20.12,32.7,32.7,976,86,23.0,130,100
197,Iralaya,HN,1653189205,10000,-83.2333,15.0,80.58,86.36,80.58,80.58,1015,85,16.51,122,100
198,Isangel,VU,1653189205,10000,169.2667,-19.55,79.25,79.25,79.25,79.25,1008,83,13.62,259,59
199,Itarema,BR,1653189054,10000,-39.9167,-2.9248,74.97,76.39,74.97,74.97,1015,90,7.4,119,1
200,Itatskiy,RU,1653189205,10000,89.0369,56.07,70.18,68.86,70.18,70.18,1008,42,5.57,101,5
201,Izumo,JP,1653189205,10000,132.7667,35.3667,73.54,73.36,73.54,73.54,1007,59,13.62,253,0
202,Jamestown,US,1653189206,10000,-79.2353,42.097,64.02,64.6,62.51,65.01,1017,95,5.75,60,100
203,Janikowo,PL,1653189206,10000,18.1133,52.7533,48.45,43.14,46.99,49.23,1013,95,13.13,288,29
204,Jaynagar,IN,1653189206,10000,86.15,26.5833,85.95,89.31,85.95,85.95,999,55,15.5,101,35
205,Jiblah,YE,1653189207,10000,44.1467,13.9216,67.33,64.94,67.33,67.33,1013,25,4.7,16,27
206,Jiexiu,CN,1653189207,10000,111.9125,37.0244,82.4,80.35,82.4,82.4,1006,24,2.73,311,57
207,Juneau,US,1653189080,10000,-134.4197,58.3019,56.84,54.57,56.84,61.11,1021,50,1.19,2,18
208,Kabinda,CD,1653188937,10000,24.4833,-6.1333,67.84,68.18,67.84,67.84,1013,82,1.25,251,22
209,Kaeo,NZ,1653188994,10000,173.7833,-35.1,63.57,62.69,63.57,63.57,1016,65,9.64,246,100
210,Kaitangata,NZ,1653189207,10000,169.8464,-46.2817,47.01,40.75,47.01,47.01,1003,78,15.28,254,94
211,Kaka,TM,1653189208,10000,59.6143,37.3482,63.12,61.07,63.12,63.12,1020,41,7.09,278,19
212,Kalmunai,LK,1653189208,10000,81.8167,7.4167,84.33,90.19,84.33,84.33,1007,67,1.7,272,99
213,Kamennomostskiy,RU,1653189208,10000,40.1856,44.2983,54.16,52.09,54.16,54.16,1009,60,6.11,184,24
214,Kapaa,US,1653189208,10000,-159.319,22.0752,79.63,79.63,79.12,80.58,1018,82,12.66,40,40
215,Karavayevo,RU,1653189209,10000,37.9622,55.2961,41.14,34.59,40.57,43.25,1003,60,11.18,50,0
216,Kargasok,RU,1653189209,10000,80.8572,59.0556,60.21,58.51,60.21,60.21,1005,55,16.46,116,69
217,Karratha,AU,1653189209,10000,116.8463,-20.7377,80.42,83.08,80.42,80.42,1012,66,6.58,328,100
218,Katsuura,JP,1653189210,10000,140.3,35.1333,64.11,64.02,64.11,64.11,1005,81,16.04,5,96
219,Kavaratti,IN,1653189210,10000,72.642,10.5669,83.01,91.02,83.01,83.01,1009,79,18.34,275,99
220,Kavieng,PG,1653189210,10000,150.7967,-2.5744,85.23,91.0,85.23,85.23,1008,64,13.53,80,96
221,Kenai,US,1653189210,10000,-151.2583,60.5544,64.45,61.45,64.45,65.03,1018,18,16.11,100,0
222,Ketchikan,US,1653189211,10000,-131.6461,55.3422,64.87,62.65,64.87,64.87,1022,34,8.05,140,0
223,Khatanga,RU,1653189211,10000,102.5,71.9667,35.73,30.4,35.73,35.73,1008,87,6.38,244,100
224,Kiama,AU,1653188997,10000,150.8667,-34.6833,60.78,60.28,60.46,64.99,1027,79,7.4,197,91
225,Kigoma,TZ,1653189213,10000,29.6267,-4.8769,72.34,72.99,72.34,72.34,1013,79,5.01,55,37
226,Kirakira,SB,1653189213,10000,161.9205,-10.4544,84.18,90.54,84.18,84.18,1009,69,4.94,31,20
227,Kiruna,SE,1653189213,10000,20.2251,67.8557,40.12,38.01,40.12,40.12,1010,87,3.44,210,75
228,Klaksvík,FO,1653189214,10000,-6.589,62.2266,47.32,41.47,47.32,47.32,1003,91,14.03,181,100
229,Kloulklubed,PW,1653189214,10000,134.2556,7.0419,82.9,89.29,82.9,82.9,1008,74,10.0,154,72
230,Knysna,ZA,1653189214,10000,23.0471,-34.0363,54.57,53.02,54.57,54.57,1024,70,2.82,336,14
231,Saint Paul Harbor,US,1653189214,2012,-152.4072,57.79,47.71,39.47,47.71,47.71,1010,87,26.46,90,100
232,Kodinsk,RU,1653189215,10000,99.1844,58.6881,52.93,50.18,52.93,52.93,1007,48,11.25,305,51
233,Kollo,NE,1653189215,10000,2.339,13.3043,86.56,87.58,86.56,86.56,1010,46,8.08,269,70
234,Yangi Marg`ilon,UZ,1653189215,10000,71.7189,40.4272,63.32,62.31,63.32,63.32,1012,63,6.91,250,75
235,Konispol,AL,1653189215,10000,20.1814,39.6589,54.55,53.19,54.55,61.66,1013,74,1.74,90,5
236,Korla,CN,1653189216,10000,86.1469,41.7597,79.9,79.9,79.9,79.9,1002,12,12.8,48,100
237,Krasnoborsk,RU,1653189216,10000,45.934,61.5598,32.36,24.42,32.36,32.36,1008,82,9.53,1,100
238,Krasnoyarsk,RU,1653189216,10000,92.7917,56.0097,64.8,62.71,64.8,68.65,1009,37,0.81,217,37
239,Kruisfontein,ZA,1653189216,10000,24.7314,-34.0033,47.88,46.94,47.88,47.88,1024,88,3.36,315,2
240,Kuandian,CN,1653189217,10000,124.7847,40.7286,75.6,75.2,75.6,75.6,1006,50,5.06,63,24
241,Kununurra,AU,1653189095,10000,128.7333,-15.7667,87.78,84.79,87.78,87.78,1013,25,10.36,110,7
242,Kuril'sk,RU,1653189217,10000,147.8833,45.2333,57.02,55.67,57.02,57.02,1013,69,14.12,167,34
243,Kushiro,JP,1653189217,10000,144.3747,42.975,58.08,57.54,58.08,58.08,1011,84,7.11,143,88
244,La Palma,US,1653189218,10000,-118.0467,33.8464,63.34,62.89,59.9,66.81,1015,75,8.05,190,75
245,Labuhan,ID,1653189218,10000,112.2051,-6.8844,85.39,93.2,85.39,85.39,1009,69,12.06,99,64
246,Laela,TZ,1653189218,10000,32.05,-8.5667,62.11,61.56,62.11,62.11,1016,75,1.28,307,95
247,Lagoa,PT,1653189218,10000,-27.9833,39.05,62.06,62.44,62.06,62.06,1023,95,2.46,15,100
248,Muhafazat Lahij,YE,1653189219,10000,44.5833,13.1667,85.15,82.49,85.15,85.15,1007,25,0.54,247,69
249,Lakhnādon,IN,1653189219,10000,79.6,22.6,87.15,87.06,87.15,87.15,1000,41,21.23,290,0
250,Lander,US,1653189219,10000,-108.7307,42.833,43.41,36.55,42.12,43.61,1024,54,13.8,320,75
251,Lavrentiya,RU,1653189219,10000,-171.0,65.5833,37.99,31.08,37.99,37.99,1021,90,10.16,18,98
252,Lebu,CL,1653189220,10000,-73.65,-37.6167,51.69,50.85,51.69,51.69,1020,91,12.77,21,95
253,Lemgo,DE,1653189220,10000,8.9,52.0333,45.27,45.27,44.06,49.14,1017,94,2.01,195,97
254,Leningradskiy,RU,1653189220,10000,178.4167,69.3833,34.25,25.9,34.25,34.25,1023,96,11.34,114,100
255,León,MX,1653188943,10000,-101.6667,21.1167,78.85,78.85,78.85,78.85,1012,16,7.7,316,9
256,Leer,SS,1653189221,10000,30.1418,8.3018,75.09,76.35,75.09,75.09,1011,86,3.91,322,100
257,Lianran,CN,1653189221,10000,102.485,24.9227,61.12,61.39,61.12,61.12,1005,95,2.84,99,100
258,Liku,ID,1653189221,10000,119.8922,-0.7275,81.9,87.82,81.9,81.9,1011,77,0.87,321,97
259,Lima,PE,1653188926,10000,-77.0282,-12.0432,63.9,63.79,59.25,63.9,991,81,2.3,0,40
260,Limpapa,PH,1653189223,10000,121.9106,7.1197,81.37,85.66,81.37,81.37,1009,72,4.56,155,99
261,Linguère,SN,1653189223,10000,-15.1193,15.3953,71.51,71.6,71.51,71.51,1012,69,10.31,286,79
262,Lipin Bor,RU,1653189223,10000,37.9763,60.2622,30.7,22.6,30.7,30.7,1013,65,9.13,22,7
263,Lompoc,US,1653189223,10000,-120.4579,34.6391,55.17,54.14,53.49,62.02,1015,80,8.05,280,0
264,Longyearbyen,SJ,1653189224,10000,15.6401,78.2186,35.44,29.7,35.44,35.44,1013,75,6.91,170,75
265,Lorengau,PG,1653189224,10000,147.2712,-2.0226,85.93,93.63,85.93,85.93,1008,67,9.95,81,95
266,Los Llanos de Aridane,ES,1653189224,10000,-17.9182,28.6585,60.12,59.72,60.12,65.95,1018,83,14.97,20,100
267,Luanda,AO,1653189225,10000,13.2343,-8.8368,70.34,71.31,70.34,70.34,1013,90,7.87,155,68
268,Lubango,AO,1653189225,10000,13.4925,-14.9172,52.59,48.92,52.59,52.59,1017,29,1.86,142,35
269,Lüderitz,NA,1653189225,10000,15.1594,-26.6481,55.49,53.6,55.49,55.49,1020,61,10.38,148,7
270,Luján,AR,1653189225,10000,-59.105,-34.5703,51.19,48.54,46.26,53.94,1021,54,0.83,187,2
271,Luwuk,ID,1653189226,10000,122.7875,-0.9516,85.59,92.48,85.59,85.59,1010,66,5.06,202,33
272,Lyngseidet,NO,1653189226,9038,20.2189,69.5763,42.8,41.34,42.8,42.8,1012,94,3.18,174,98
273,Maceió,BR,1653189181,10000,-35.7353,-9.6658,74.64,76.23,74.64,74.64,1018,94,2.3,190,75
274,Mackay,AU,1653189226,10000,149.2,-21.15,75.69,76.62,75.69,75.69,1014,78,16.87,162,99
275,Macusani,PE,1653189226,10000,-70.4333,-14.0833,32.97,32.97,32.97,32.97,1024,92,2.75,332,46
276,Madukkūr,IN,1653189227,10000,79.4,10.4833,86.95,90.7,86.95,86.95,1006,54,7.14,261,62
277,Mahanoro,MG,1653189227,10000,48.8,-19.9,65.95,66.38,65.95,65.95,1020,88,5.64,237,19
278,Mahébourg,MU,1653189227,10000,57.7,-20.4081,70.25,70.54,70.25,70.25,1019,76,12.12,112,13
279,Mahibadhoo,MV,1653189228,10000,72.9667,3.7833,82.9,90.16,82.9,82.9,1010,77,12.62,271,89
280,Majene,ID,1653189228,10000,118.9707,-3.5403,84.47,90.82,84.47,84.47,1009,68,8.97,119,73
281,Makakilo City,US,1653189228,10000,-158.0858,21.3469,82.45,84.13,76.98,84.52,1017,55,16.11,90,100
282,Malakal,SS,1653189228,10000,31.6605,9.5334,76.12,76.77,76.12,76.12,1011,71,4.94,256,99
283,Departamento de Maldonado,UY,1653189229,10000,-54.9167,-34.6667,47.59,45.7,47.59,53.22,1021,89,4.54,306,0
284,Mahabalipuram,IN,1653189229,10000,80.1722,12.6264,87.85,91.17,87.85,88.05,1005,51,14.34,267,100
285,Mana,GF,1653189229,10000,-53.7767,5.6592,77.2,78.75,77.2,77.2,1017,88,9.6,79,100
286,Manama,BH,1653189230,10000,50.5832,26.2154,84.18,86.29,84.18,85.33,1003,54,19.57,320,0
287,Manaquiri,BR,1653189230,10000,-60.35,-3.3167,79.25,79.25,75.69,79.25,1016,93,3.13,13,82
288,Manga,BF,1653189230,10000,-1.0731,11.6636,79.12,79.12,79.12,79.12,1011,65,9.93,204,88
289,Maningrida,AU,1653189230,10000,134.2667,-12.0667,89.71,90.59,89.71,89.71,1010,41,8.93,98,45
290,Manthani,IN,1653189231,10000,79.6667,18.65,94.68,94.32,94.68,94.68,1002,31,15.75,300,2
291,Mar del Plata,AR,1653188950,100,-57.5575,-38.0023,48.94,48.07,39.22,48.94,1022,91,3.44,290,31
292,Maragogi,BR,1653189008,10000,-35.2225,-9.0122,76.78,78.12,76.78,76.78,1017,84,14.12,164,93
293,Marawi,PH,1653189231,10000,124.2928,7.9986,80.96,84.4,80.96,80.96,1009,69,1.99,306,81
294,Marechal Cândido Rondon,BR,1653189077,10000,-54.0567,-24.5561,51.66,50.47,51.66,51.66,1022,84,4.52,106,8
295,Martinez,US,1653189233,10000,-122.1341,38.0194,65.53,64.0,51.13,75.94,1013,47,8.05,250,0
296,Marzuq,YE,1653189233,10000,46.4667,14.4,75.74,74.14,75.74,75.74,1011,24,2.59,267,59
297,Masvingo,ZW,1653189233,10000,30.8277,-20.0637,58.57,58.5,58.57,58.57,1017,93,2.55,125,89
298,Mataura,NZ,1653189233,10000,168.8643,-46.1927,43.47,37.94,43.47,43.47,1005,88,9.98,248,100
299,Maubin,MM,1653189234,10000,95.65,16.7333,87.87,100.47,87.87,87.87,1003,72,11.72,271,100
300,Mazatlán,MX,1653189036,10000,-106.4167,23.2167,74.97,76.21,71.56,75.02,1012,86,1.99,291,0
301,Mbalmayo,CM,1653189234,10000,11.5,3.5167,68.41,69.6,68.41,68.41,1013,99,2.15,229,98
302,Mbandaka,CD,1653189234,10000,18.2603,0.0487,71.46,72.54,71.46,71.46,1012,90,1.88,269,100
303,Makkah al Mukarramah,SA,1653189234,10000,39.8261,21.4267,85.91,82.96,85.91,85.91,1007,23,1.88,344,1
304,Megion,RU,1653189235,10000,76.1136,61.0296,55.02,52.9,53.62,55.02,1003,57,20.78,105,100
305,Mehamn,NO,1653189235,10000,27.8492,71.0357,40.91,36.3,40.91,40.91,1013,96,6.89,127,100
306,Merauke,ID,1653189235,10000,140.3333,-8.4667,86.7,91.33,86.7,86.7,1008,57,9.95,164,87
307,Mersing,MY,1653189236,10000,103.8405,2.4312,87.84,95.72,87.84,87.84,1008,62,6.44,222,68
308,Meulaboh,ID,1653189236,10000,96.1285,4.1363,81.54,87.67,81.54,81.54,1010,80,0.63,247,94
309,Mezhdurechenskiy,RU,1653189236,10000,65.9333,59.6,48.42,43.99,48.42,48.42,989,93,10.22,122,100
310,Midleton,IE,1653189236,10000,-8.1805,51.9153,56.28,56.17,55.13,56.64,1013,97,10.74,219,100
311,Mizdah,LY,1653189237,10000,12.9801,31.4451,61.74,58.6,61.74,61.74,1018,21,2.26,177,0
312,Mmabatho,ZA,1653189237,10000,25.6333,-25.85,40.96,36.14,40.96,40.96,1021,78,7.27,139,7
313,Mogok,MM,1653189237,10000,96.5,22.9167,75.54,76.42,75.54,75.54,1003,77,2.82,265,8
314,Mookane,BW,1653189238,10000,26.6595,-23.688,47.34,47.34,47.34,47.34,1020,82,0.76,34,96
315,Moose Factory,CA,1653189238,10000,-80.6094,51.2585,35.42,35.42,35.42,35.42,1019,73,1.63,228,57
316,Moryakovskiy Zaton,RU,1653189238,10000,84.6467,56.6956,68.5,66.97,68.02,70.11,1005,41,6.11,121,23
317,Mount Gambier,AU,1653189238,10000,140.7667,-37.8333,62.06,60.37,62.06,62.06,1029,51,4.21,104,1
318,Mount Isa,AU,1653189232,10000,139.5,-20.7333,76.77,76.35,76.77,76.77,1016,47,9.22,120,40
319,Moyale,KE,1653189239,10000,39.0584,3.5167,64.81,65.46,64.81,64.81,1016,95,5.28,143,100
320,Muisne,EC,1653189239,10000,-80.0333,0.6,77.49,79.16,77.49,77.49,1014,90,4.38,225,78
321,Muravlenko,RU,1653189228,10000,74.523,63.7898,44.26,36.93,44.26,44.26,1007,63,16.35,98,100
322,Muriti,TZ,1653189239,10000,32.9167,-1.9833,73.27,73.45,73.27,73.27,1013,67,3.29,217,100
323,Muros,ES,1653188976,10000,-9.0603,42.7762,63.48,63.81,62.83,65.16,1012,91,3.06,171,96
324,Namatanai,PG,1653189240,10000,152.4333,-3.6667,85.05,89.98,85.05,85.05,1008,62,11.01,76,98
325,Mossamedes,AO,1653189240,10000,12.1522,-15.1961,67.37,66.63,67.37,67.37,1014,60,2.51,253,32
326,Namie,JP,1653189240,10000,141.0,37.4833,59.99,60.01,59.99,60.55,1003,92,11.07,1,100
327,Narsaq,GL,1653189241,10000,-46.05,60.9167,37.62,37.62,37.62,37.62,1016,80,2.1,160,100
328,Naryan-Mar,RU,1653189241,10000,53.087,67.6713,27.21,14.61,27.21,27.21,1018,76,17.54,48,97
329,Natá,PA,1653189241,10000,-80.5167,8.3333,78.46,80.04,78.46,78.46,1014,86,3.31,315,100
330,Naze,JP,1653189243,10000,129.4833,28.3667,70.86,71.08,70.86,70.86,1010,73,10.56,38,93
331,Neijiang,CN,1653189168,10000,105.0622,29.5835,65.68,65.84,65.68,65.68,1009,83,3.11,173,100
332,New Norfolk,AU,1653189243,10000,147.0587,-42.7826,51.13,48.52,49.5,55.92,1031,55,2.06,316,98
333,Nhulunbuy,AU,1653189243,10000,136.7667,-12.2333,88.41,95.11,88.41,88.41,1011,58,16.11,120,40
334,Nikolskoye,RU,1653189243,10000,30.7861,59.7035,42.21,38.7,41.81,42.69,1013,70,5.53,59,0
335,Nokaneng,BW,1653189244,10000,22.2667,-19.6667,42.78,42.78,42.78,42.78,1022,71,2.24,204,0
336,Norman Wells,CA,1653189244,10000,-126.8329,65.282,41.14,36.07,41.14,41.14,1026,82,7.83,302,100
337,Norsup,VU,1653189244,10000,167.3833,-16.0667,82.72,88.61,82.72,82.72,1009,73,1.03,220,36
338,North Battleford,CA,1653189245,10000,-108.2847,52.7834,51.4,48.6,51.4,51.4,1023,50,3.49,319,41
339,North Vernon,US,1653189245,10000,-85.6236,39.0062,65.86,66.42,64.76,67.39,1017,91,16.49,261,95
340,Northam,GB,1653189245,10000,-4.2167,51.0333,50.79,49.8,49.24,51.62,1017,90,7.52,184,86
341,Nouadhibou,MR,1653189245,10000,-17.0347,20.931,65.16,65.7,65.16,65.16,1013,92,20.58,351,56
342,Novaya Bryan’,RU,1653189246,10000,108.2691,51.7159,68.41,66.65,68.41,68.41,1009,36,10.69,288,47
343,Nové Město na Moravě,CZ,1653189246,10000,16.0742,49.5614,46.78,46.04,43.54,48.34,1019,77,3.0,346,36
344,Novikovo,RU,1653189246,4417,37.8879,51.1537,53.2,52.83,53.2,53.2,995,98,0.29,111,100
345,Novoagansk,RU,1653189247,10000,76.6625,61.9449,52.68,50.43,52.68,52.68,1005,59,13.47,113,85
346,Nuuk,GL,1653189247,2600,-51.7216,64.1835,41.61,29.79,41.61,41.61,999,87,35.68,160,75
347,Nyurba,RU,1653189247,10000,118.3319,63.2842,61.79,59.68,61.79,61.79,1005,43,4.79,78,87
348,Octeville,FR,1653189248,2200,-1.6435,49.6261,50.49,49.6,50.49,50.49,1018,93,4.61,40,91
349,Ofakim,IL,1653189248,10000,34.6203,31.3141,68.7,69.08,68.7,68.7,1013,81,8.52,272,97
350,Oistins,BB,1653189248,10000,-59.5333,13.0667,80.69,85.39,80.69,80.69,1018,78,20.71,90,40
351,Okato,NZ,1653189248,10000,173.8833,-39.2,58.32,58.55,54.68,59.92,1011,100,19.55,246,68
352,Øksfjord,NO,1653189249,10000,22.3479,70.2396,42.91,42.91,39.99,42.98,1012,80,1.59,125,94
353,Olafsvik,IS,1653189249,10000,-23.7142,64.8945,40.8,31.5,40.8,40.8,1008,84,20.18,43,59
354,Olinda,BR,1653189094,10000,-34.8553,-8.0089,76.73,78.53,76.73,76.73,1016,94,6.91,220,75
355,Omboué,GA,1653189249,10000,9.2618,-1.5746,74.46,75.79,74.46,74.46,1012,89,6.26,163,97
356,Opotiki,NZ,1653189250,10000,177.2833,-38.0833,65.39,64.69,65.39,65.39,1008,65,9.8,290,75
357,Otjimbingwe,NA,1653189250,10000,16.1333,-22.35,47.61,44.42,47.61,47.61,1021,51,6.78,75,1
358,Otradnoye,RU,1653189250,10000,30.8181,59.7775,41.97,38.5,41.97,42.85,1013,70,5.41,58,0
359,Ouadda,CF,1653189250,10000,22.4007,8.0777,68.36,69.13,68.36,68.36,1012,90,2.17,222,100
360,Paamiut,GL,1653189251,10000,-49.6678,61.994,40.17,27.77,40.17,40.17,1007,77,35.81,146,100
361,Pacific Grove,US,1653189092,10000,-121.9166,36.6177,53.17,52.0,50.5,59.81,1015,81,8.05,260,0
362,Pacifica,US,1653189251,10000,-122.4869,37.6138,54.72,53.55,50.77,64.72,1015,78,20.71,300,20
363,Padang,ID,1653189253,10000,100.3543,-0.9492,86.05,95.2,86.05,86.05,1010,70,3.09,266,74
364,Palencia,ES,1653189253,10000,-4.5,42.4167,61.32,60.91,61.11,64.8,1013,80,4.94,76,100
365,Palmerston,AU,1653189253,10000,130.9833,-12.486,88.47,89.4,86.88,89.89,1012,43,12.66,110,0
366,Palu,ID,1653189253,10000,119.8707,-0.8917,83.53,91.36,83.53,83.53,1011,76,1.7,343,94
367,Pampierstad,ZA,1653189254,10000,24.6877,-27.7832,47.23,43.79,47.23,47.23,1021,94,7.11,212,56
368,Panama City,PA,1653189052,10000,-79.5197,8.9936,79.81,79.81,77.79,81.28,1013,84,6.91,320,75
369,Pangkalanbuun,ID,1653189254,10000,111.6167,-2.6833,86.9,93.69,86.9,86.9,1009,62,3.4,74,62
370,Pangnirtung,CA,1653189254,10000,-65.7125,66.1451,30.02,21.81,30.02,30.02,983,82,9.01,55,100
371,Paraná,AR,1653189255,10000,-60.5238,-31.732,56.91,56.59,54.55,58.55,1021,91,4.7,52,40
372,Parintins,BR,1653189255,10000,-56.7358,-2.6283,71.83,73.24,71.83,71.83,1017,96,0.76,304,45
373,Paso de Carrasco,UY,1653189255,5000,-56.0522,-34.8603,50.14,48.96,50.14,50.14,1020,87,4.61,340,1
374,Patan,NP,1653189255,5000,85.3333,27.6667,61.18,61.41,61.18,61.18,1009,94,10.36,350,75
375,Pemangkat,ID,1653189256,10000,108.9667,1.1667,85.62,93.34,85.62,85.62,1009,68,5.55,209,52
376,Pendleton,US,1653189129,10000,-118.7886,45.6721,55.36,53.47,52.95,57.4,1020,61,18.41,360,0
377,Peniche,PT,1653189256,10000,-9.3811,39.3558,61.93,62.35,61.45,62.29,1012,96,15.88,231,100
378,Pervomayskoye,RU,1653189256,10000,46.7102,43.919,59.99,58.55,59.99,59.99,1010,61,3.24,242,1
379,Petropavlovsk-Kamchatskiy,RU,1653189257,10000,158.6483,53.0452,45.19,41.54,44.78,45.19,1022,81,6.71,160,75
380,Pevek,RU,1653189257,7937,170.3133,69.7008,36.19,31.64,36.19,36.19,1019,94,5.46,123,83
381,Pisco,PE,1653189257,4000,-76.2167,-13.7,60.85,60.78,60.85,62.02,1017,88,2.3,0,75
382,Pochutla,MX,1653189258,10000,-96.4661,15.7432,79.83,79.83,79.83,79.83,1013,73,5.46,271,96
383,Ponta do Sol,PT,1653189258,10000,-17.1,32.6667,64.35,64.24,63.12,66.83,1022,80,3.29,1,92
384,Port Alfred,ZA,1653189258,10000,26.891,-33.5906,57.22,56.41,57.22,57.22,1024,80,5.84,303,4
385,Port Elizabeth,ZA,1653189259,10000,25.5701,-33.918,50.09,48.74,50.09,50.09,1024,84,4.41,299,0
386,Port Hardy,CA,1653189077,10000,-127.4199,50.6996,54.34,52.86,54.34,54.34,1023,72,9.75,309,5
387,Port Lincoln,AU,1653189077,10000,135.8667,-34.7333,64.27,63.27,64.27,64.27,1024,61,12.73,45,74
388,Port Macquarie,AU,1653189012,2000,152.9167,-31.4333,58.89,59.18,58.89,60.89,1024,100,6.91,270,75
389,Port Said,EG,1653189259,10000,32.2841,31.2565,66.38,66.11,66.38,66.38,1012,72,16.24,261,0
390,Portland,US,1653189210,10000,-122.6762,45.5234,64.17,62.64,60.93,66.9,1020,50,8.05,330,20
391,Poso,ID,1653189259,10000,120.7524,-1.3959,86.29,90.57,86.29,86.29,1010,57,2.91,22,74
392,Poum,NC,1653189260,10000,164.0167,-20.2333,78.26,79.59,78.26,78.26,1010,81,16.55,53,9
393,Praia da Vitória,PT,1653189260,10000,-27.0667,38.7333,63.75,64.47,63.75,63.75,1023,99,5.97,337,90
394,Prainha,BR,1653189260,8504,-53.48,-1.8,72.32,73.85,72.32,72.32,1017,98,1.81,109,99
395,Praia,CV,1653189261,10000,-23.5087,14.9215,70.34,70.74,70.34,70.34,1016,78,9.22,20,20
396,Price,US,1653188982,10000,-110.8107,39.5994,52.86,48.56,51.12,52.86,1019,15,6.91,40,20
397,Pringsewu,ID,1653189261,10000,104.9744,-5.3582,84.07,91.63,84.07,84.07,1010,73,4.18,192,81
398,Pristina,XK,1653189263,10000,21.1669,42.6727,58.37,57.76,54.25,58.37,1015,82,0.0,0,0
399,Provideniya,RU,1653189263,10000,-173.3,64.3833,50.68,47.8,50.68,50.68,1018,50,9.44,62,99
400,Puerto Ayora,EC,1653189263,10000,-90.3518,-0.7393,71.44,72.41,71.44,71.44,1015,88,6.6,123,74
401,Puerto Escondido,MX,1653189263,10000,-97.0667,15.85,81.43,86.99,81.43,81.43,1014,78,5.75,300,0
402,Puerto Nariño,CO,1653189264,10000,-70.3831,-3.7703,72.72,74.1,72.72,72.72,1016,94,2.42,22,95
403,Punta Arenas,CL,1653189133,10000,-70.9167,-53.15,37.51,33.87,37.11,37.51,991,75,4.61,10,75
404,Qaanaaq,GL,1653189264,10000,-69.3632,77.484,12.74,4.33,12.74,12.74,1007,89,5.1,26,99
405,Qaqortoq,GL,1653189264,10000,-46.0333,60.7167,38.08,33.19,38.08,38.08,1016,83,6.42,119,100
406,Qasigiannguit,GL,1653189221,10000,-51.1922,68.8193,35.85,30.18,35.85,35.85,1002,82,6.93,96,100
407,Ranong,TH,1653189265,10000,98.6348,9.9658,82.81,91.76,82.81,82.81,1007,83,16.67,240,100
408,Raudeberg,NO,1653189265,10000,5.1352,61.9875,48.87,43.05,47.95,48.87,1012,87,15.61,193,100
409,Rawicz,PL,1653189265,10000,16.8585,51.6095,49.75,46.04,47.95,50.14,1019,96,9.08,274,11
410,Rawson,AR,1653189265,10000,-65.1023,-43.3002,58.95,56.66,58.95,58.95,1007,45,20.74,325,93
411,Reconquista,AR,1653189266,10000,-59.65,-29.15,54.3,53.42,54.3,54.3,1021,85,5.3,55,100
412,Redcar,GB,1653189039,10000,-1.06,54.6166,51.58,48.13,51.3,52.36,1014,36,8.97,184,97
413,Remanso,BR,1653189266,10000,-42.0831,-9.6179,73.47,73.72,73.47,73.47,1018,68,9.42,103,19
414,Ribeira Grande,PT,1653189266,10000,-28.7,38.5167,64.06,64.58,64.06,64.06,1023,94,0.94,240,100
415,Richards Bay,ZA,1653189215,10000,32.0377,-28.783,62.26,62.08,62.26,62.26,1018,83,20.92,231,100
416,Rikitea,PF,1653189267,10000,-134.9692,-23.1203,75.76,76.55,75.76,75.76,1017,75,13.06,103,3
417,Río Gallegos,AR,1653189091,10000,-69.2181,-51.6226,37.45,28.22,37.45,37.45,993,81,16.11,340,0
418,Rio Grande,BR,1653189267,10000,-52.0986,-32.035,46.94,43.7,46.94,46.94,1022,79,6.6,279,100
419,Roald,NO,1653189267,10000,6.1333,62.5833,50.63,49.48,47.32,53.76,1011,87,6.91,160,100
420,Robertsport,LR,1653189267,4178,-11.3686,6.7533,77.49,79.07,77.49,77.49,1013,88,11.3,327,100
421,Rocha,UY,1653189268,10000,-54.3333,-34.4833,48.85,47.05,48.85,48.85,1021,89,4.7,287,1
422,Rome,US,1653189150,10000,-75.4557,43.2128,72.14,72.54,68.58,73.96,1016,74,4.61,280,40
423,Rundu,NA,1653189268,10000,19.7667,-17.9333,40.51,36.36,40.51,40.51,1023,38,6.02,134,0
424,Ryazanovskiy,RU,1653189268,10000,39.4333,55.55,38.28,32.11,38.28,38.28,1005,69,8.75,47,63
425,Saint Anthony,US,1653189268,10000,-93.218,45.0205,47.77,42.42,43.14,51.69,1022,52,12.66,340,75
426,Saint George,US,1653189161,10000,-113.5841,37.1041,75.79,73.49,75.79,75.79,1013,9,11.5,250,0
427,Saint-Philippe,RE,1653189269,10000,55.7679,-21.3585,67.59,67.71,64.11,67.59,1021,78,6.87,82,26
428,Saint-Pierre,RE,1653189269,10000,55.4781,-21.3393,67.3,66.92,64.18,67.68,1018,68,5.75,90,0
429,Saldanha,ZA,1653189269,10000,17.9442,-33.0117,56.19,55.31,56.19,56.19,1025,81,3.78,119,32
430,Samarai,PG,1653189270,10000,150.6667,-10.6167,82.9,89.56,82.9,82.9,1009,75,9.33,96,93
431,San Ignacio,BZ,1653189270,10000,-89.0714,17.1561,86.14,95.41,86.14,86.14,1012,70,6.91,60,0
432,San Jerónimo,PE,1653189270,10000,-75.2829,-11.9472,51.26,49.89,51.26,51.26,1022,81,0.98,319,100
433,San Patricio,US,1653189271,10000,-97.5169,28.017,81.86,91.62,80.44,83.12,1010,92,15.79,139,6
434,San Quintín,MX,1653189271,10000,-115.95,30.4833,60.48,59.61,60.48,60.48,1016,72,5.53,297,69
435,San Rafael,AR,1653189058,10000,-68.3301,-34.6177,53.62,50.04,53.62,53.62,1017,29,8.16,313,100
436,Santa Rosa,PH,1653189271,10000,121.1114,14.3122,87.21,99.81,86.02,89.1,1008,74,1.07,321,93
437,Santo Antônio do Içá,BR,1653189273,10000,-67.9397,-3.1022,71.91,73.45,71.91,71.91,1017,99,1.57,19,98
438,São Filipe,CV,1653189273,10000,-24.4956,14.8961,71.37,72.01,71.37,71.37,1016,81,5.28,41,48
439,São João da Barra,BR,1653189002,10000,-41.0511,-21.6403,65.07,65.17,65.07,65.07,1024,83,4.76,245,15
440,São José da Coroa Grande,BR,1653189273,10000,-35.1478,-8.8978,77.04,78.39,77.04,77.04,1017,84,13.56,165,94
441,Sarny,UA,1653189273,10000,26.6019,51.338,49.95,44.82,49.95,49.95,1006,82,14.0,286,82
442,Saskylakh,RU,1653189274,29,114.0833,71.9167,34.84,30.43,34.84,34.84,1008,100,4.99,172,100
443,Sauda,NO,1653189274,10000,6.3542,59.6506,51.67,51.06,51.67,51.67,1014,96,1.34,212,100
444,Scarborough,GB,1653189274,10000,-0.4044,54.2797,50.67,49.33,49.93,51.91,1014,83,1.99,191,93
445,Seoul,KR,1653189104,10000,126.9778,37.5683,74.59,73.87,67.44,74.59,1007,45,10.78,235,4
446,Sept-Îles,CA,1653189275,402,-66.3821,50.2001,46.06,46.06,46.06,46.92,1012,97,2.3,290,100
447,Sertã,PT,1653189275,10000,-8.0988,39.8085,58.95,58.86,58.95,59.43,1014,92,5.19,158,100
448,Severo-Kuril'sk,RU,1653189275,7071,156.125,50.6789,46.33,41.59,46.33,46.33,1020,88,9.71,127,76
449,Severodvinsk,RU,1653189275,10000,39.8302,64.5635,30.31,21.11,30.11,30.31,1017,68,11.03,33,51
450,Sfântu Gheorghe,RO,1653189276,10000,25.7833,45.8667,58.82,58.91,55.27,58.82,1012,96,4.83,263,83
451,Shache,CN,1653189276,10000,77.2406,38.4167,73.71,72.05,73.71,73.71,1003,27,9.08,308,100
452,Shahr-e Kord,IR,1653189276,10000,50.8644,32.3256,60.01,56.61,60.01,60.01,1015,19,2.46,30,45
453,Shelburne,CA,1653189276,10000,-80.2041,44.0787,54.72,54.27,53.29,55.36,1016,93,2.91,39,89
454,Shimoda,JP,1653189278,10000,138.95,34.6667,66.27,66.07,66.27,66.27,1005,74,8.5,52,40
455,Chu,KZ,1653189278,10000,73.7614,43.5983,60.78,59.7,60.78,60.78,1013,67,11.68,282,100
456,Shuangyang,CN,1653189278,10000,125.6736,43.5242,73.74,72.18,73.74,73.74,1008,29,8.79,32,82
457,Sibolga,ID,1653189279,10000,98.7792,1.7427,84.69,91.63,84.69,84.69,1010,69,2.55,229,83
458,Sigli,ID,1653189279,10000,95.9609,5.3848,86.95,93.38,86.95,86.95,1008,61,0.63,328,53
459,Sinnamary,GF,1653189279,10000,-52.95,5.3833,77.16,78.76,77.16,77.16,1017,89,10.94,79,100
460,Sioux Lookout,CA,1653189279,10000,-91.917,50.1001,32.34,28.74,32.34,32.34,1021,92,3.76,304,98
461,Sisimiut,GL,1653189280,10000,-53.6735,66.9395,40.78,35.47,40.78,40.78,998,67,8.14,80,100
462,Sitka,US,1653189280,10000,-135.33,57.0531,57.09,55.22,57.09,57.09,1022,58,0.0,0,0
463,Kneževo,BA,1653189280,10000,17.3775,44.4908,53.44,53.04,53.44,53.44,1017,97,1.99,67,100
464,Skibbereen,IE,1653189280,10000,-9.2667,51.55,54.1,53.67,54.1,54.1,1013,95,11.34,230,100
465,Skjervøy,NO,1653189281,10000,20.9714,70.0311,42.8,41.54,42.8,42.8,1012,82,3.0,121,89
466,Skuodas,LT,1653189281,10000,21.5333,56.2667,49.78,46.38,49.78,49.86,1006,97,8.3,38,100
467,Slave Lake,CA,1653189150,10000,-114.769,55.2834,45.39,45.39,45.39,45.39,1021,46,2.19,232,56
468,Sobolevo,RU,1653189283,10000,31.8996,54.4299,45.77,39.34,45.77,45.77,1000,93,14.56,58,100
469,Sokoni,TZ,1653189283,10000,39.55,-6.4333,79.3,79.3,79.3,79.3,1014,78,11.52,160,100
470,Sørland,NO,1653189283,10000,12.6934,67.667,44.46,41.86,44.46,44.46,1011,91,4.79,144,100
471,Sovetskiy,RU,1653189283,10000,63.5842,61.3614,39.81,32.47,39.81,39.81,993,92,12.39,69,100
472,Springbok,ZA,1653189284,10000,17.8865,-29.6643,44.29,41.85,44.29,44.29,1024,66,4.54,89,23
473,Stillwater,US,1653189060,10000,-97.0584,36.1156,56.46,54.82,54.34,58.55,1022,64,6.91,350,0
474,Sur,OM,1653189284,10000,59.5289,22.5667,94.28,95.77,94.28,94.28,999,36,12.75,226,0
475,Swift Current,CA,1653189284,10000,-107.8014,50.2834,45.14,41.85,45.14,45.14,1024,38,6.06,267,84
476,Tabas,IR,1653189284,10000,56.9244,33.5959,67.66,66.0,67.66,67.66,1012,40,12.06,326,5
477,Tabou,CI,1653189285,4676,-7.3528,4.423,75.24,76.69,75.24,75.24,1013,90,6.58,277,100
478,Talcahuano,CL,1653189285,10000,-73.1167,-36.7167,53.28,52.72,53.28,53.28,1022,94,6.91,10,100
479,Talnakh,RU,1653189285,10000,88.3972,69.4865,47.21,46.45,47.21,47.21,1011,85,3.06,126,99
480,Taltal,CL,1653189020,10000,-70.4833,-25.4,59.76,59.29,59.76,59.76,1020,82,3.49,141,17
481,Taree,AU,1653189286,10000,152.4667,-31.9,63.1,63.25,60.06,63.1,1024,88,3.94,147,100
482,Tasiilaq,GL,1653189286,10000,-37.6368,65.6145,32.16,32.16,32.16,32.16,1016,71,2.51,303,70
483,Tavira,PT,1653189286,10000,-7.6486,37.1273,61.27,60.19,61.27,62.47,1017,66,3.0,124,100
484,Tcholliré,CM,1653189287,10000,14.1698,8.4022,76.6,77.34,76.6,76.6,1011,72,2.59,209,95
485,Te Anau,NZ,1653189287,10000,167.7167,-45.4167,47.66,44.96,47.66,47.66,1005,73,5.86,251,79
486,Ténenkou,ML,1653189287,10000,-4.9169,14.4572,87.01,86.88,87.01,87.01,1009,41,7.09,175,79
487,Termini Imerese,IT,1653189287,10000,13.6956,37.9837,64.04,63.16,61.2,67.19,1017,64,3.4,187,1
488,Tessalit,ML,1653189288,10000,1.0114,20.1986,85.93,82.58,85.93,85.93,1009,13,2.91,41,62
489,Tezu,IN,1653189288,10000,96.1667,27.9167,82.22,87.31,82.22,82.22,1003,72,2.46,228,49
490,The Valley,AI,1653189288,10000,-63.0578,18.217,80.46,83.84,79.11,80.82,1021,71,15.68,76,96
491,Thinadhoo,MV,1653189288,10000,72.9333,0.5333,83.17,89.31,83.17,83.17,1010,72,11.12,271,100
492,Thompson,CA,1653189289,10000,-97.8558,55.7435,40.06,40.06,40.06,40.06,1018,58,1.43,166,35
493,Tigil',RU,1653189289,10000,158.6667,57.8,53.35,51.24,53.35,53.35,1020,61,4.05,84,93
494,Tiksi,RU,1653189289,10000,128.8694,71.6872,31.03,25.56,31.03,31.03,1012,92,5.41,128,100
495,Tobatí,PY,1653189290,10000,-57.0667,-25.25,52.54,51.82,52.54,52.54,1021,92,4.47,105,59
496,Tondano,ID,1653189290,10000,124.9112,1.3038,84.29,90.12,84.29,84.29,1010,67,3.11,198,81
497,Tongzi,CN,1653189290,10000,105.0877,28.7829,66.94,67.14,66.94,66.94,1009,81,2.37,185,100
498,Torbay,CA,1653189290,10000,-52.7314,47.6666,44.51,39.79,44.51,44.51,1024,76,8.63,205,38
499,Torrington,US,1653189291,10000,-73.1212,41.8007,71.44,72.46,67.62,74.55,1017,89,4.36,227,0
500,Touros,BR,1653189214,10000,-35.4608,-5.1989,75.34,76.77,75.34,75.34,1016,89,9.98,165,3
501,Tragana,GR,1653189291,10000,23.1167,38.6167,54.59,52.05,54.59,54.59,1011,49,2.04,241,33
502,Trairi,BR,1653189044,10000,-39.2689,-3.2778,73.72,75.16,73.72,73.72,1016,93,5.5,146,5
503,Troitsko-Pechorsk,RU,1653189293,70,56.1964,62.7084,34.5,26.2,34.5,34.5,1001,97,11.36,29,100
504,San Miguel de Tucumán,AR,1653189013,10000,-65.2226,-26.8241,53.6,52.23,53.6,53.6,1020,76,6.91,360,0
505,Tuktoyaktuk,CA,1653189293,10000,-133.0374,69.4541,30.2,21.4,30.2,30.2,1030,71,10.2,37,14
506,Tupik,RU,1653189293,3734,119.9327,54.4253,44.51,39.43,44.51,44.51,1001,96,9.48,80,100
507,Turukhansk,RU,1653189295,10000,87.9833,65.8167,57.61,56.03,57.61,57.61,1009,63,2.66,336,41
508,Tuy Hoa,VN,1653189010,10000,109.3,13.0833,88.23,97.11,88.23,88.23,1005,63,5.39,226,100
509,Udachny,RU,1653189295,10000,112.4,66.4167,54.88,52.32,54.88,54.88,1006,48,4.88,83,15
510,Ugoofaaru,MV,1653189295,10000,73.0,5.6667,82.92,90.19,82.92,82.92,1010,77,14.47,273,31
511,Ukwā,IN,1653189295,10000,80.4667,21.9667,90.28,88.25,90.28,90.28,1001,30,7.09,289,0
512,Umm Kaddadah,SD,1653189083,10000,26.6876,13.6017,79.18,79.18,79.18,79.18,1012,19,8.19,85,100
513,Upernavik,GL,1653189296,10000,-56.1549,72.7868,28.44,28.44,28.44,28.44,1004,86,2.75,150,100
514,Ürümqi,CN,1653189296,10000,87.6005,43.801,81.55,79.45,81.55,81.55,1005,17,2.24,0,0
515,Ushibukamachi,JP,1653189296,10000,130.0228,32.1906,69.84,70.0,69.84,69.84,1009,74,7.85,303,96
516,Ushuaia,AR,1653189089,10000,-68.3,-54.8,37.06,37.06,37.06,37.06,993,81,2.3,220,0
517,Ust-Nera,RU,1653189297,3601,143.2,64.5667,44.1,42.42,44.1,44.1,1011,60,3.58,158,97
518,Uyemskiy,RU,1653189297,10000,40.8524,64.4743,30.06,23.36,30.06,30.25,1016,68,6.71,30,100
519,Vaini,TO,1653189297,10000,-175.2,-21.2,80.76,84.87,80.76,80.76,1014,74,6.91,80,40
520,Vao,NC,1653189297,10000,167.4833,-22.6667,73.83,74.97,73.83,73.83,1011,86,25.52,119,83
521,Vejle,DK,1653189298,10000,9.5357,55.7093,50.58,49.48,48.87,52.21,1014,88,6.98,274,94
522,Vestmannaeyjar,IS,1653189298,10000,-20.2734,63.4427,48.6,44.67,48.6,48.6,1002,81,8.97,39,18
523,Hong Kong,HK,1653189298,10000,114.1577,22.2855,77.68,79.11,74.95,84.18,1008,84,15.01,90,96
524,Vila,PT,1653189299,10000,-8.1588,42.0304,52.7,52.09,52.68,52.7,1012,94,2.42,225,27
525,Vila Franca do Campo,PT,1653189299,10000,-25.4333,37.7167,69.19,70.32,64.81,69.19,1023,96,4.61,271,100
526,Vila Velha,BR,1653189269,10000,-40.2925,-20.3297,62.55,62.92,62.55,62.55,1023,94,2.3,320,20
527,Vilyuysk,RU,1653189300,10000,121.6247,63.7553,61.43,58.96,61.43,61.43,1006,36,3.76,90,23
528,Vostok,RU,1653189005,10000,135.8833,46.4856,48.4,47.88,48.4,48.4,1005,97,3.0,284,100
529,Waipawa,NZ,1653189300,10000,175.5153,-41.4122,56.89,55.11,56.89,56.89,1003,60,10.98,271,9
530,Wajima,JP,1653189300,10000,136.9,37.4,66.06,65.79,66.06,66.06,1006,73,9.28,251,14
531,Watsa,CD,1653189301,10000,29.5355,3.0372,61.45,61.9,61.45,61.45,1013,98,1.86,135,99
532,Wenling,CN,1653189301,10000,121.36,28.3669,70.74,70.93,70.74,70.74,1011,73,5.17,106,90
533,West Saint Paul,US,1653189303,10000,-93.1016,44.9161,48.49,43.32,42.85,51.39,1021,47,12.66,340,100
534,Weyburn,CA,1653189057,10000,-103.8511,49.6668,45.99,42.69,45.99,45.99,1024,54,6.35,332,72
535,Witu,KE,1653189303,10000,40.4382,-2.3889,77.16,78.8,77.16,77.16,1013,90,7.25,185,93
536,Xai-Xai,MZ,1653189303,10000,33.6442,-25.0519,67.08,67.91,67.08,67.08,1016,94,5.91,166,100
537,Xining,CN,1653189304,10000,101.7667,36.6167,62.82,60.76,62.82,62.82,1005,42,2.3,91,0
538,Yagodnoye,RU,1653189304,10000,149.6667,62.55,42.49,39.16,42.49,42.49,1015,62,5.35,200,94
539,Yamada,JP,1653189304,10000,141.95,39.4667,58.14,57.92,58.14,58.14,1008,91,4.56,307,100
540,Yanam,IN,1653189304,10000,82.2167,16.7333,86.38,91.45,86.38,86.38,1001,59,9.19,267,99
541,Yar-Sale,RU,1653189060,10000,70.8333,66.8333,33.67,24.03,33.67,33.67,1013,72,14.18,34,100
542,Yellowknife,CA,1653189305,10000,-114.3525,62.456,43.32,38.08,43.32,44.56,1015,100,9.22,20,100
543,Yinchuan,CN,1653189305,10000,106.2731,38.4681,78.3,77.23,78.3,78.3,1003,30,4.88,191,5
544,Yulara,AU,1653189306,10000,130.9889,-25.2406,68.16,66.13,68.16,68.16,1019,31,8.72,80,51
545,Yumen,CN,1653189306,10000,97.2,40.2833,77.2,75.33,77.2,77.2,1001,15,21.41,84,0
546,Zhangjiakou,CN,1653189306,10000,114.8794,40.81,82.33,80.01,82.33,82.33,1006,18,3.71,203,98
547,Zhangye,CN,1653189307,10000,100.4517,38.9342,78.04,76.35,78.04,78.04,1001,17,2.3,350,75
548,Zhigansk,RU,1653189307,10000,123.3711,66.7697,46.45,43.63,46.45,46.45,1009,50,5.68,24,4
